{"_id":{"$oid":"5c3fff0afb6fc0600be219e1"},"userId":"01","displayName":"Cop 1","phone":"01","email":"cop01@gmail.com","location":{"type":"Point","address":"272 vassar st, Cambridge, MA 02139","coordinates":[42.356339,-71.10236]}}
{"_id":{"$oid":"5c3fff2cfb6fc0600be219f2"},"userId":"02","displayName":"Cop 2","phone":"02","email":"cop02@gmail.com","location":{"type":"Point","address":"25 pacific st, Cambridge, MA 02139","coordinates":[42.359328,-71.100761]}}
{"_id":{"$oid":"5c3fff3ffb6fc0600be219f4"},"userId":"03","displayName":"Cop 3","phone":"03","email":"cop03@gmail.com","location":{"type":"Point","address":"MA-3, Cambridge, MA","coordinates":[42.359328,-71.100761]}}
{"_id":{"$oid":"5c3fff4ffb6fc0600be219f6"},"userId":"04","displayName":"Cop 4","phone":"04","email":"cop04@gmail.com","location":{"type":"Point","address":"486 Beacon St, Boston, MA 02115","coordinates":[42.350971,-71.088885]}}
{"_id":{"$oid":"5c3fff64fb6fc0600be219fe"},"userId":"05","displayName":"Cop 5","phone":"05","email":"cop05@gmail.com","location":{"type":"Point","address":"351 MA-2A, Cambridge, MA 02139","coordinates":[42.362657,-71.099034]}}
{"_id":{"$oid":"5c3fff72fb6fc0600be219ff"},"userId":"06","displayName":"Cop 6","phone":"06","email":"cop06@gmail.com","location":{"type":"Point","address":"US-3, Cambridge, MA 02139","coordinates":[42.355371,-71.098766]}}
{"_id":{"$oid":"5c3fff80fb6fc0600be21a00"},"userId":"07","displayName":"Cop 7","phone":"07","email":"cop07@gmail.com","location":{"type":"Point","address":"184 Amherst Alley, Cambridge, MA 02139","coordinates":[42.355117,-71.101641]}}
